{"MRData":{"xmlns":"http:\/\/ergast.com\/mrd\/1.4","series":"f1","url":"http://ergast.com/api/f1/2021.json","limit":"30","offset":"0","total":"22","RaceTable":{"season":"2021","Races":[{"season":"2021","round":"1","url":"https:\/\/en.wikipedia.org\/wiki\/2021_Bahrain_Grand_Prix","raceName":"Bahrain Grand Prix","Circuit":{"circuitId":"bahrain","url":"http:\/\/en.wikipedia.org\/wiki\/Bahrain_International_Circuit","circuitName":"Bahrain International Circuit","Location":{"lat":"26.0325","long":"50.5106","locality":"Sakhir","country":"Bahrain"}},"date":"2021-03-28","time":"15:00:00Z"},{"season":"2021","round":"2","url":"http:\/\/en.wikipedia.org\/wiki\/2021_Emilia_Romagna_Grand_Prix","raceName":"Emilia Romagna Grand Prix","Circuit":{"circuitId":"imola","url":"http:\/\/en.wikipedia.org\/wiki\/Autodromo_Enzo_e_Dino_Ferrari","circuitName":"Autodromo Enzo e Dino Ferrari","Location":{"lat":"44.3439","long":"11.7167","locality":"Imola","country":"Italy"}},"date":"2021-04-18","time":"13:00:00Z"},{"season":"2021","round":"3","url":"http:\/\/en.wikipedia.org\/wiki\/2021_Portuguese_Grand_Prix","raceName":"Portuguese Grand Prix","Circuit":{"circuitId":"portimao","url":"http:\/\/en.wikipedia.org\/wiki\/Algarve_International_Circuit","circuitName":"Autódromo Internacional do Algarve","Location":{"lat":"37.227","long":"-8.6267","locality":"Portimão","country":"Portugal"}},"date":"2021-05-02","time":"14:00:00Z"},{"season":"2021","round":"4","url":"http:\/\/en.wikipedia.org\/wiki\/2021_Spanish_Grand_Prix","raceName":"Spanish Grand Prix","Circuit":{"circuitId":"catalunya","url":"http:\/\/en.wikipedia.org\/wiki\/Circuit_de_Barcelona-Catalunya","circuitName":"Circuit de Barcelona-Catalunya","Location":{"lat":"41.57","long":"2.26111","locality":"Montmeló","country":"Spain"}},"date":"2021-05-09","time":"13:00:00Z"},{"season":"2021","round":"5","url":"http:\/\/en.wikipedia.org\/wiki\/2021_Monaco_Grand_Prix","raceName":"Monaco Grand Prix","Circuit":{"circuitId":"monaco","url":"http:\/\/en.wikipedia.org\/wiki\/Circuit_de_Monaco","circuitName":"Circuit de Monaco","Location":{"lat":"43.7347","long":"7.42056","locality":"Monte-Carlo","country":"Monaco"}},"date":"2021-05-23","time":"13:00:00Z"},{"season":"2021","round":"6","url":"http:\/\/en.wikipedia.org\/wiki\/2021_Azerbaijan_Grand_Prix","raceName":"Azerbaijan Grand Prix","Circuit":{"circuitId":"BAK","url":"http:\/\/en.wikipedia.org\/wiki\/Baku_City_Circuit","circuitName":"Baku City Circuit","Location":{"lat":"40.3725","long":"49.8533","locality":"Baku","country":"Azerbaijan"}},"date":"2021-06-06","time":"12:00:00Z"},{"season":"2021","round":"7","url":"http:\/\/en.wikipedia.org\/wiki\/2021_French_Grand_Prix","raceName":"French Grand Prix","Circuit":{"circuitId":"ricard","url":"http:\/\/en.wikipedia.org\/wiki\/Paul_Ricard_Circuit","circuitName":"Circuit Paul Ricard","Location":{"lat":"43.2506","long":"5.79167","locality":"Le Castellet","country":"France"}},"date":"2021-06-20","time":"13:00:00Z"},{"season":"2021","round":"8","url":"http:\/\/en.wikipedia.org\/wiki\/2021_Styrian_Grand_Prix","raceName":"Styrian Grand Prix","Circuit":{"circuitId":"red_bull_ring","url":"http:\/\/en.wikipedia.org\/wiki\/Red_Bull_Ring","circuitName":"Red Bull Ring","Location":{"lat":"47.2197","long":"14.7647","locality":"Spielberg","country":"Austria"}},"date":"2021-06-27","time":"13:00:00Z"},{"season":"2021","round":"9","url":"http:\/\/en.wikipedia.org\/wiki\/2021_Austrian_Grand_Prix","raceName":"Austrian Grand Prix","Circuit":{"circuitId":"red_bull_ring","url":"http:\/\/en.wikipedia.org\/wiki\/Red_Bull_Ring","circuitName":"Red Bull Ring","Location":{"lat":"47.2197","long":"14.7647","locality":"Spielberg","country":"Austria"}},"date":"2021-07-04","time":"13:00:00Z"},{"season":"2021","round":"10","url":"http:\/\/en.wikipedia.org\/wiki\/2021_British_Grand_Prix","raceName":"British Grand Prix","Circuit":{"circuitId":"silverstone","url":"http:\/\/en.wikipedia.org\/wiki\/Silverstone_Circuit","circuitName":"Silverstone Circuit","Location":{"lat":"52.0786","long":"-1.01694","locality":"Silverstone","country":"UK"}},"date":"2021-07-18","time":"14:00:00Z"},{"season":"2021","round":"11","url":"http:\/\/en.wikipedia.org\/wiki\/2021_Hungarian_Grand_Prix","raceName":"Hungarian Grand Prix","Circuit":{"circuitId":"hungaroring","url":"http:\/\/en.wikipedia.org\/wiki\/Hungaroring","circuitName":"Hungaroring","Location":{"lat":"47.5789","long":"19.2486","locality":"Budapest","country":"Hungary"}},"date":"2021-08-01","time":"13:00:00Z"},{"season":"2021","round":"12","url":"http:\/\/en.wikipedia.org\/wiki\/2021_Belgian_Grand_Prix","raceName":"Belgian Grand Prix","Circuit":{"circuitId":"spa","url":"http:\/\/en.wikipedia.org\/wiki\/Circuit_de_Spa-Francorchamps","circuitName":"Circuit de Spa-Francorchamps","Location":{"lat":"50.4372","long":"5.97139","locality":"Spa","country":"Belgium"}},"date":"2021-08-29","time":"13:00:00Z"},{"season":"2021","round":"13","url":"http:\/\/en.wikipedia.org\/wiki\/2021_Dutch_Grand_Prix","raceName":"Dutch Grand Prix","Circuit":{"circuitId":"zandvoort","url":"http:\/\/en.wikipedia.org\/wiki\/Circuit_Zandvoort","circuitName":"Circuit Park Zandvoort","Location":{"lat":"52.3888","long":"4.54092","locality":"Zandvoort","country":"Netherlands"}},"date":"2021-09-05","time":"13:00:00Z"},{"season":"2021","round":"14","url":"http:\/\/en.wikipedia.org\/wiki\/2021_Italian_Grand_Prix","raceName":"Italian Grand Prix","Circuit":{"circuitId":"monza","url":"http:\/\/en.wikipedia.org\/wiki\/Autodromo_Nazionale_Monza","circuitName":"Autodromo Nazionale di Monza","Location":{"lat":"45.6156","long":"9.28111","locality":"Monza","country":"Italy"}},"date":"2021-09-12","time":"13:00:00Z"},{"season":"2021","round":"15","url":"http:\/\/en.wikipedia.org\/wiki\/2021_Russian_Grand_Prix","raceName":"Russian Grand Prix","Circuit":{"circuitId":"sochi","url":"http:\/\/en.wikipedia.org\/wiki\/Sochi_Autodrom","circuitName":"Sochi Autodrom","Location":{"lat":"43.4057","long":"39.9578","locality":"Sochi","country":"Russia"}},"date":"2021-09-26","time":"12:00:00Z"},{"season":"2021","round":"16","url":"http:\/\/en.wikipedia.org\/wiki\/2021_Turkish_Grand_Prix","raceName":"Turkish Grand Prix","Circuit":{"circuitId":"istanbul","url":"http:\/\/en.wikipedia.org\/wiki\/Istanbul_Park","circuitName":"Istanbul Park","Location":{"lat":"40.9517","long":"29.405","locality":"Istanbul","country":"Turkey"}},"date":"2021-10-10","time":"12:00:00Z"},{"season":"2021","round":"17","url":"http:\/\/en.wikipedia.org\/wiki\/2021_United_States_Grand_Prix","raceName":"United States Grand Prix","Circuit":{"circuitId":"americas","url":"http:\/\/en.wikipedia.org\/wiki\/Circuit_of_the_Americas","circuitName":"Circuit of the Americas","Location":{"lat":"30.1328","long":"-97.6411","locality":"Austin","country":"USA"}},"date":"2021-10-24","time":"19:00:00Z"},{"season":"2021","round":"18","url":"http:\/\/en.wikipedia.org\/wiki\/2021_Mexican_Grand_Prix","raceName":"Mexico City Grand Prix","Circuit":{"circuitId":"rodriguez","url":"http:\/\/en.wikipedia.org\/wiki\/Aut%C3%B3dromo_Hermanos_Rodr%C3%ADguez","circuitName":"Autódromo Hermanos Rodríguez","Location":{"lat":"19.4042","long":"-99.0907","locality":"Mexico City","country":"Mexico"}},"date":"2021-11-07","time":"19:00:00Z"},{"season":"2021","round":"19","url":"http:\/\/en.wikipedia.org\/wiki\/São_Paulo_Grand_Prix","raceName":"São Paulo Grand Prix","Circuit":{"circuitId":"interlagos","url":"http:\/\/en.wikipedia.org\/wiki\/Aut%C3%B3dromo_Jos%C3%A9_Carlos_Pace","circuitName":"Autódromo José Carlos Pace","Location":{"lat":"-23.7036","long":"-46.6997","locality":"São Paulo","country":"Brazil"}},"date":"2021-11-14","time":"17:00:00Z"},{"season":"2021","round":"20","url":"http:\/\/en.wikipedia.org\/wiki\/2021_Qatar_Grand_Prix","raceName":"Qatar Grand Prix","Circuit":{"circuitId":"losail","url":"http:\/\/en.wikipedia.org\/wiki\/Losail_International_Circuit","circuitName":"Losail International Circuit","Location":{"lat":"25.49","long":"51.4542","locality":"Al Daayen","country":"Qatar"}},"date":"2021-11-21","time":"14:00:00Z"},{"season":"2021","round":"21","url":"http:\/\/en.wikipedia.org\/wiki\/2021_Saudi_Arabian_Grand_Prix","raceName":"Saudi Arabian Grand Prix","Circuit":{"circuitId":"jeddah","url":"http:\/\/en.wikipedia.org\/wiki\/Jeddah_Street_Circuit","circuitName":"Jeddah Street Circuit","Location":{"lat":"21.5433","long":"39.1728","locality":"Jeddah","country":"Saudi Arabia"}},"date":"2021-12-05","time":"17:30:00Z"},{"season":"2021","round":"22","url":"http:\/\/en.wikipedia.org\/wiki\/2021_Abu_Dhabi_Grand_Prix","raceName":"Abu Dhabi Grand Prix","Circuit":{"circuitId":"yas_marina","url":"http:\/\/en.wikipedia.org\/wiki\/Yas_Marina_Circuit","circuitName":"Yas Marina Circuit","Location":{"lat":"24.4672","long":"54.6031","locality":"Abu Dhabi","country":"UAE"}},"date":"2021-12-12","time":"13:00:00Z"}]}}}